lat,lon,place,region
50.680848,16.278117,Waligóra,Góry Kamienne
50.736103,15.739742,Sniezka,Karkonosze
49.074560,22.726325,Tarnica,Bieszczady
49.413802,20.414218,Trzy Korony,Pieniny
50.482427,16.344528,Szczeliniec,Góry Stolowe
50.272240,16.965272,Czernica,Góry Zlote
50.207464,16.847352,Snieznik,Masyw Snieznika
